[
{"name": "Aigle - Chablais Centre", "type": "mmm", "location": {"geo": {"lon": 6.9364455, "lat": 46.3167026}, "zip": "1860", "country": "CH", "address": "Ch. Sous-le-Grand Pr\\u00e9 4", "city": "Aigle", "address2": ""}},
{"name": "Alnatura Bio Super Markt Bern", "type": "alna", "location": {"geo": {"lon": 7.443384, "lat": 46.9475701}, "zip": "3011", "country": "CH", "address": "B\\u00e4renplatz 8", "city": "Bern", "address2": ""}},
{"name": "Alterswil", "type": "dmp", "location": {"geo": {"lon": 7.2597819, "lat": 46.7948011}, "zip": "1715", "country": "CH", "address": "Dorfzentrum Alpenrose", "city": "Alterswil", "address2": ""}},
{"name": "Avenches", "type": "m", "location": {"geo": {"lon": 7.0451655, "lat": 46.8854592}, "zip": "1580", "country": "CH", "address": "Route de Pr\\u00e9-Vert 5", "city": "Avenches", "address2": ""}},
{"name": "Blonay", "type": "m", "location": {"geo": {"lon": 6.8952017, "lat": 46.4644668}, "zip": "1807", "country": "CH", "address": "Route du Village 37", "city": "Blonay", "address2": ""}},
{"name": "Bolligen", "type": "mig", "location": {"geo": {"lon": 7.4968721, "lat": 46.9701472}, "zip": "3065", "country": "CH", "address": "Bolligenstrasse 90", "city": "Bolligen", "address2": ""}},
{"name": "Boudry", "type": "mgls", "location": {"geo": {"lon": 6.8454068, "lat": 46.9539937}, "zip": "2017", "country": "CH", "address": "Route de vignoble 13", "city": "Boudry", "address2": ""}},
{"name": "Bremgarten Kalchacker", "type": "m", "location": {"geo": {"lon": 7.4375202, "lat": 46.9753771}, "zip": "3047", "country": "CH", "address": "Kalchackerstrasse 9", "city": "Bremgarten b. Bern", "address2": ""}},
{"name": "Bulle", "type": "mgls", "location": {"geo": {"lon": 7.0563577, "lat": 46.6233565}, "zip": "1630", "country": "CH", "address": "Rue de l'Europe 82", "city": "Bulle", "address2": ""}},
{"name": "Bulle - Gruy\\u00e8re-Centre", "type": "mmm", "location": {"geo": {"lon": 7.0574539, "lat": 46.6232086}, "zip": "1630", "country": "CH", "address": "Rue Ch\\u00e2teau d'En-Bas 2", "city": "Bulle", "address2": ""}},
{"name": "Chamoson", "type": "dmp", "location": {"geo": {"lon": 7.2233814, "lat": 46.2020085}, "zip": "1955", "country": "CH", "address": "Chemin Neuf 2", "city": "Chamoson", "address2": ""}},
{"name": "Chavannes - Renens", "type": "m", "location": {"geo": {"lon": 6.5763873, "lat": 46.5364692}, "zip": "1022", "country": "CH", "address": "Avenue du Tir-F\\u00e9d\\u00e9ral 12", "city": "Chavannes-Renens", "address2": ""}},
{"name": "Chavannes La Cerisaie Outlet", "type": "spez", "location": {"geo": {"lon": 6.5674249, "lat": 46.5282782}, "zip": "1022", "country": "CH", "address": "Route de la Maladi\\u00e8re 6", "city": "Chavannes-pr\\u00e8s-Renens", "address2": ""}},
{"name": "Cheseaux", "type": "shell", "location": {"geo": {"lon": 6.6013953, "lat": 46.5825542}, "zip": "1033", "country": "CH", "address": "Route de Gen\\u00e8ve 9a", "city": "Cheseaux-sur-Lausanne", "address2": ""}},
{"name": "Chez-le-Bart - B\\u00e9roche", "type": "m", "location": {"geo": {"lon": 6.7838713, "lat": 46.8996814}, "zip": "2025", "country": "CH", "address": "Rue de Combamare 21", "city": "Chez-le-Bart", "address2": ""}},
{"name": "Ch\\u00e2tel-St-Denis", "type": "mm", "location": {"geo": {"lon": 6.9048889, "lat": 46.5237831}, "zip": "1618", "country": "CH", "address": "Rte de Montreux 56", "city": "Ch\\u00e2tel-St-Denis", "address2": ""}},
{"name": "Ch\\u00eane-Bougeries", "type": "shell", "location": {"geo": {"lon": 6.1865501, "lat": 46.2033483}, "zip": "1224", "country": "CH", "address": "Ch. de la Gradelle 40", "city": "Ch\\u00eane-Bougeries", "address2": ""}},
{"name": "Ch\\u00eane-Bourg", "type": "mm", "location": {"geo": {"lon": 6.1943164, "lat": 46.1963267}, "zip": "1225", "country": "CH", "address": "Avenue de Bel-Air 12", "city": "Ch\\u00eane-Bourg", "address2": ""}},
{"name": "Clarens - Centre", "type": "m", "location": {"geo": {"lon": 6.8934821, "lat": 46.4412673}, "zip": "1815", "country": "CH", "address": "Rue du L\\u00e9man 9", "city": "Clarens", "address2": ""}},
{"name": "Collombey", "type": "mm", "location": {"geo": {"lon": 6.9566145, "lat": 46.2652306}, "zip": "1868", "country": "CH", "address": "Entre-deux-Fossaux", "city": "Collombey", "address2": ""}},
{"name": "Collombey", "type": "mgls", "location": {"geo": {"lon": 6.9531105, "lat": 46.2672488}, "zip": "1868", "country": "CH", "address": "Pr\\u00e9 du Pont 103", "city": "Collombey", "address2": ""}},
{"name": "Collonge-Bellerive - V\\u00e9senaz", "type": "mm", "location": {"geo": {"lon": 6.1995331, "lat": 46.2409626}, "zip": "1245", "country": "CH", "address": "Route de Thonon 55", "city": "Collonge-Bellerive", "address2": ""}},
{"name": "Colombier", "type": "m", "location": {"geo": {"lon": 6.8517986, "lat": 46.9672459}, "zip": "2013", "country": "CH", "address": "Avenue de la Gare 16", "city": "Colombier NE", "address2": ""}},
{"name": "Conthey", "type": "mgls", "location": {"geo": {"lon": 7.3014206, "lat": 46.2245292}, "zip": "1964", "country": "CH", "address": "Route Cantonale 25", "city": "Conthey", "address2": ""}},
{"name": "Conthey - Forum des Alpes", "type": "mmm", "location": {"geo": {"lon": 7.3009436, "lat": 46.2235391}, "zip": "1964", "country": "CH", "address": "Route des Rottes 15", "city": "Conthey", "address2": ""}},
{"name": "Cortaillod", "type": "m", "location": {"geo": {"lon": 6.8429599, "lat": 46.9442979}, "zip": "2016", "country": "CH", "address": "Chemin de Ronzi 2", "city": "Cortaillod", "address2": ""}},
{"name": "Cossonay", "type": "m", "location": {"geo": {"lon": 6.5066553, "lat": 46.6137634}, "zip": "1304", "country": "CH", "address": "Route des Chavannes 1", "city": "Cossonay-Ville", "address2": ""}},
{"name": "Courtepin", "type": "m", "location": {"geo": {"lon": 7.1201102, "lat": 46.8656187}, "zip": "1784", "country": "CH", "address": "Route de l'Industrie 25", "city": "Courtepin", "address2": ""}},
{"name": "Crans-Montana", "type": "m", "location": {"geo": {"lon": 7.4732188, "lat": 46.3094446}, "zip": "3963", "country": "CH", "address": "Route du Rawyl 32", "city": "Crans-Montana", "address2": ""}},
{"name": "Crissier", "type": "mmm", "location": {"geo": {"lon": 6.5690604, "lat": 46.5543608}, "zip": "1023", "country": "CH", "address": "Chemin du Closalet 7", "city": "Crissier", "address2": ""}},
{"name": "Cugy", "type": "m", "location": {"geo": {"lon": 6.6414782, "lat": 46.5877538}, "zip": "1053", "country": "CH", "address": "Route de Bottens 1", "city": "Cugy VD", "address2": ""}},
{"name": "Domdidier", "type": "m", "location": {"geo": {"lon": 7.0092891, "lat": 46.8653776}, "zip": "1564", "country": "CH", "address": "Grand-Rhain 54", "city": "Domdidier", "address2": ""}},
{"name": "D\\u00fcdingen", "type": "mm", "location": {"geo": {"lon": 7.19207, "lat": 46.8469871}, "zip": "3186", "country": "CH", "address": "K\\u00e4sereistrasse 3", "city": "D\\u00fcdingen", "address2": ""}},
{"name": "Echallens", "type": "mm", "location": {"geo": {"lon": 6.6360482, "lat": 46.6388941}, "zip": "1040", "country": "CH", "address": "Rue de Praz-Palud 2", "city": "Echallens", "address2": ""}},
{"name": "Ecublens - Croset", "type": "mm", "location": {"geo": {"lon": 6.5649077, "lat": 46.5345194}, "zip": "1024", "country": "CH", "address": "chemin du Croset 7", "city": "Ecublens VD", "address2": ""}},
{"name": "Ecublens - EPFL", "type": "m", "location": {"geo": {"lon": 6.5645584, "lat": 46.5230466}, "zip": "1024", "country": "CH", "address": "Louis Favre 8A", "city": "Ecublens VD", "address2": ""}},
{"name": "Epalinges", "type": "mm", "location": {"geo": {"lon": 6.6708585, "lat": 46.5485622}, "zip": "1066", "country": "CH", "address": "Place de la Croix-Blanche 11", "city": "Epalinges", "address2": ""}},
{"name": "Erde", "type": "dmp", "location": {"geo": {"lon": 7.2878921, "lat": 46.2376096}, "zip": "1976", "country": "CH", "address": "Scex-Riond / CP 48", "city": "Erde", "address2": ""}},
{"name": "Estavayer-le-Lac", "type": "mm", "location": {"geo": {"lon": 6.8513418, "lat": 46.847963}, "zip": "1470", "country": "CH", "address": "Route de la Chapelle 24", "city": "Estavayer-le-Lac", "address2": ""}},
{"name": "Etoy", "type": "m", "location": {"geo": {"lon": 6.4259736, "lat": 46.4737122}, "zip": "1163", "country": "CH", "address": "Route Suisse 26", "city": "Etoy", "address2": ""}},
{"name": "Etoy", "type": "mgls", "location": {"geo": {"lon": 6.4185074, "lat": 46.474662}, "zip": "1163", "country": "CH", "address": "Rte Noyer Girod 1", "city": "Etoy", "address2": ""}},
{"name": "Etoy (march\\u00e9 sp\\u00e9cialis\\u00e9)", "type": "fm", "location": {"geo": {"lon": 6.4181966, "lat": 46.4745693}, "zip": "1163", "country": "CH", "address": "Route de Noyer-Girod 3", "city": "Etoy", "address2": ""}},
{"name": "Etrembi\\u00e8res (F)", "type": "mmm", "location": {"geo": {"lon": 6.2322629, "lat": 46.1810413}, "zip": "74112", "country": "FR", "address": "CC Shopping-Etrembi\\u00e8res", "city": "Etrembi\\u00e8res", "address2": ""}},
{"name": "Flamatt", "type": "m", "location": {"geo": {"lon": 7.3191353, "lat": 46.8896931}, "zip": "3175", "country": "CH", "address": "Bernstrasse 36", "city": "Flamatt", "address2": ""}},
{"name": "Flamatt - Bernstrasse 50", "type": "mgls", "location": {"geo": {"lon": 7.323263, "lat": 46.8899632}, "zip": "3175", "country": "CH", "address": "Bernstrasse 50", "city": "Flamatt", "address2": ""}},
{"name": "Fleurier", "type": "mm", "location": {"geo": {"lon": 6.5805278, "lat": 46.9020353}, "zip": "2114", "country": "CH", "address": "Grand-Rue 27", "city": "Fleurier", "address2": ""}},
{"name": "Fribourg - Beauregard", "type": "m", "location": {"geo": {"lon": 7.1444374, "lat": 46.8006068}, "zip": "1700", "country": "CH", "address": "Chemin de B\\u00e9thl\\u00e9em 7", "city": "Fribourg", "address2": ""}},
{"name": "Fribourg - P\\u00e9rolles", "type": "mm", "location": {"geo": {"lon": 7.152315, "lat": 46.7997003}, "zip": "1700", "country": "CH", "address": "Boulevard de P\\u00e9rolles 21 A", "city": "Fribourg", "address2": ""}},
{"name": "Fribourg - Schoenberg", "type": "m", "location": {"geo": {"lon": 7.1723464, "lat": 46.8097786}, "zip": "1700", "country": "CH", "address": "Chemin Cit\\u00e9-des-Jardins 13A", "city": "Fribourg", "address2": ""}},
{"name": "Fribourg - St. Pierre M-Express", "type": "m", "location": {"geo": {"lon": 7.1543652, "lat": 46.8034025}, "zip": "1700", "country": "CH", "address": "Rue St-Pierre 2", "city": "Fribourg", "address2": ""}},
{"name": "Fribourg AMAG", "type": "soca", "location": {"geo": {"lon": 7.1337955, "lat": 46.7992026}, "zip": "1752", "country": "CH", "address": "Route de Villars 108", "city": "Villars-sur-Gl\\u00e2ne", "address2": ""}},
{"name": "Fribourg Jura", "type": "soca", "location": {"geo": {"lon": 7.139124, "lat": 46.8114955}, "zip": "1700", "country": "CH", "address": "Route du Jura 73", "city": "Fribourg", "address2": ""}},
{"name": "Fribourg Ste-Th\\u00e9r\\u00e8se", "type": "mm", "location": {"geo": {"lon": 7.1490104, "lat": 46.8101267}, "zip": "1700", "country": "CH", "address": "Route de Sainte-Th\\u00e9r\\u00e8se 2a", "city": "Fribourg", "address2": ""}},
{"name": "Frutigen", "type": "m", "location": {"geo": {"lon": 7.6483603, "lat": 46.5856019}, "zip": "3714", "country": "CH", "address": "Kanderstegstrasse 31", "city": "Frutigen", "address2": ""}},
{"name": "Fully", "type": "m", "location": {"geo": {"lon": 7.1195505, "lat": 46.136455}, "zip": "1926", "country": "CH", "address": "Rue de Provence 4", "city": "Fully", "address2": ""}},
{"name": "Gen\\u00e8ve - Champel", "type": "mm", "location": {"geo": {"lon": 6.152497, "lat": 46.1907663}, "zip": "1206", "country": "CH", "address": "Avenue de Champel 61", "city": "Gen\\u00e8ve", "address2": ""}},
{"name": "Gen\\u00e8ve - Charmilles", "type": "mm", "location": {"geo": {"lon": 6.1231482, "lat": 46.2082241}, "zip": "1203", "country": "CH", "address": "Promenade de l'Europe 11", "city": "Gen\\u00e8ve", "address2": ""}},
{"name": "Gen\\u00e8ve - Cointrin", "type": "soca", "location": {"geo": {"lon": 6.1078241, "lat": 46.224419}, "zip": "1216", "country": "CH", "address": "Avenue Louis-Casa\\u00ef 73", "city": "Cointrin", "address2": ""}},
{"name": "Gen\\u00e8ve - Cointrin A\\u00e9roport", "type": "m", "location": {"geo": {"lon": 6.1102265, "lat": 46.2312856}, "zip": "1215", "country": "CH", "address": "Route de l'A\\u00e9roport 25", "city": "Gen\\u00e8ve 15 A\\u00e9roport", "address2": ""}},
{"name": "Gen\\u00e8ve - Cornavin Gare", "type": "m", "location": {"geo": {"lon": 6.1422156, "lat": 46.2098132}, "zip": "1201", "country": "CH", "address": "Place de Cornavin 3-7", "city": "Gen\\u00e8ve", "address2": ""}},
{"name": "Gen\\u00e8ve - Eaux-Vives", "type": "mm", "location": {"geo": {"lon": 6.1585088, "lat": 46.2039608}, "zip": "1207", "country": "CH", "address": "Rue des Eaux-Vives 17-19", "city": "Gen\\u00e8ve", "address2": ""}},
{"name": "Gen\\u00e8ve - Fusterie M-Express", "type": "m", "location": {"geo": {"lon": 6.1461998, "lat": 46.2039287}, "zip": "1204", "country": "CH", "address": "Place de la Fusterie 7", "city": "Gen\\u00e8ve", "address2": ""}},
{"name": "Gen\\u00e8ve - Jonction", "type": "mm", "location": {"geo": {"lon": 6.1306224, "lat": 46.2007896}, "zip": "1205", "country": "CH", "address": "Boulevard Carl-Vogt 6", "city": "Gen\\u00e8ve", "address2": ""}},
{"name": "Gen\\u00e8ve - Les Cygnes", "type": "mm", "location": {"geo": {"lon": 6.1449087, "lat": 46.2113723}, "zip": "1201", "country": "CH", "address": "Rue de Lausanne 18-20", "city": "Gen\\u00e8ve", "address2": ""}},
{"name": "Gen\\u00e8ve - Navigation", "type": "mm", "location": {"geo": {"lon": 6.14974, "lat": 46.212579}, "zip": "1201", "country": "CH", "address": "Rue des Paquis 41", "city": "Gen\\u00e8ve", "address2": ""}},
{"name": "Gen\\u00e8ve - Plainpalais", "type": "mm", "location": {"geo": {"lon": 6.1435018, "lat": 46.1931467}, "zip": "1205", "country": "CH", "address": "Rue de Carouge 64", "city": "Gen\\u00e8ve", "address2": ""}},
{"name": "Gen\\u00e8ve - Rieu", "type": "mm", "location": {"geo": {"lon": 6.1639476, "lat": 46.1919217}, "zip": "1206", "country": "CH", "address": "Route de Florissant 86", "city": "Gen\\u00e8ve", "address2": ""}},
{"name": "Gen\\u00e8ve - Servette", "type": "mm", "location": {"geo": {"lon": 6.1296584, "lat": 46.2134099}, "zip": "1202", "country": "CH", "address": "Rue de la Servette 93", "city": "Gen\\u00e8ve", "address2": ""}},
{"name": "Gen\\u00e8ve - Tourelle", "type": "m", "location": {"geo": {"lon": 6.1258169, "lat": 46.2243865}, "zip": "1209", "country": "CH", "address": "Chemin de la Tourelle 2-4", "city": "Gen\\u00e8ve", "address2": ""}},
{"name": "Gen\\u00e8ve - Vidollet", "type": "m", "location": {"geo": {"lon": 6.1391683, "lat": 46.2162367}, "zip": "1202", "country": "CH", "address": "Rue du Vidollet 5", "city": "Gen\\u00e8ve", "address2": ""}},
{"name": "Gen\\u00e8ve - Villereuse", "type": "mm", "location": {"geo": {"lon": 6.1588299, "lat": 46.2007706}, "zip": "1207", "country": "CH", "address": "Rue de la Terrassi\\u00e8re 29", "city": "Gen\\u00e8ve", "address2": ""}},
{"name": "Gen\\u00e8ve Montbrillant", "type": "shell", "location": {"geo": {"lon": 6.1404602, "lat": 46.2198335}, "zip": "1207", "country": "CH", "address": "Rue de Montbrillant 67", "city": "Genf", "address2": ""}},
{"name": "Givisiez", "type": "mgls", "location": {"geo": {"lon": 7.1370774, "lat": 46.8119849}, "zip": "1762", "country": "CH", "address": "Impasse de la Colline 2", "city": "Givisiez", "address2": ""}},
{"name": "Gland", "type": "m", "location": {"geo": {"lon": 6.2756695, "lat": 46.4170516}, "zip": "1196", "country": "CH", "address": "Rue de Mauverney 22", "city": "Gland", "address2": ""}},
{"name": "Gland", "type": "mgls", "location": {"geo": {"lon": 6.2724682, "lat": 46.4149466}, "zip": "1196", "country": "CH", "address": "Avenue du Mont-Blanc 34", "city": "Gland", "address2": ""}},
{"name": "Gradelle", "type": "m", "location": {"geo": {"lon": 6.1812063, "lat": 46.2054501}, "zip": "1224", "country": "CH", "address": "Chemin de la Gradelle 10", "city": "Ch\\u00eane-Bougeries", "address2": ""}},
{"name": "Grand-Lancy - Palettes", "type": "mm", "location": {"geo": {"lon": 6.1223706, "lat": 46.1749719}, "zip": "1212", "country": "CH", "address": "Av. des Communes-R\\u00e9unies 52", "city": "Grand-Lancy", "address2": ""}},
{"name": "Granges - Paccot", "type": "m", "location": {"geo": {"lon": 7.1489877, "lat": 46.8289721}, "zip": "1763", "country": "CH", "address": "Route d'Englisberg 15b", "city": "Granges-Paccot", "address2": ""}},
{"name": "Granges-Paccot", "type": "shell", "location": {"geo": {"lon": 7.1516595, "lat": 46.8219444}, "zip": "1763", "country": "CH", "address": "Route de Morat 130", "city": "Granges-Paccot", "address2": ""}},
{"name": "Granges-Paccot - Centre", "type": "mm", "location": {"geo": {"lon": 7.1539379, "lat": 46.8209959}, "zip": "1763", "country": "CH", "address": "route d'Agy 2", "city": "Granges-Paccot", "address2": ""}},
{"name": "Gstaad", "type": "mm", "location": {"geo": {"lon": 7.2825683, "lat": 46.4782457}, "zip": "3780", "country": "CH", "address": "Untergstaadstrasse 3", "city": "Gstaad", "address2": ""}},
{"name": "G\\u00fcmligen", "type": "m", "location": {"geo": {"lon": 7.5042952, "lat": 46.93282}, "zip": "3073", "country": "CH", "address": "Turbenweg 1", "city": "G\\u00fcmligen", "address2": ""}},
{"name": "Haute-Nendaz", "type": "m", "location": {"geo": {"lon": 7.2918787, "lat": 46.182229}, "zip": "1997", "country": "CH", "address": "Lake Placid, rte des Ecluses 23", "city": "Haute-Nendaz", "address2": ""}},
{"name": "Bi\\u00e8re", "type": "dmp", "location": {"geo": {"lon": 6.3321026, "lat": 46.5380702}, "zip": "1145", "country": "CH", "address": "Le Centre", "city": "Bi\\u00e8re", "address2": ""}},
{"name": "Bursins", "type": "soca", "location": {"geo": {"lon": 6.2972544, "lat": 46.4446744}, "zip": "1183", "country": "CH", "address": "La C\\u00f4te / A1 Sud", "city": "Bursins", "address2": ""}},
{"name": "Bussigny", "type": "mm", "location": {"geo": {"lon": 6.5530928, "lat": 46.5475444}, "zip": "1030", "country": "CH", "address": "Rue de la Gare 2", "city": "Bussigny-Lausanne", "address2": ""}},
{"name": "Bussigny", "type": "mig", "location": {"geo": {"lon": 6.551894, "lat": 46.5476654}, "zip": "1030", "country": "CH", "address": "Place de la Gare 1", "city": "Bussigny", "address2": ""}},
{"name": "Hilterfingen", "type": "m", "location": {"geo": {"lon": 7.6586756, "lat": 46.7353444}, "zip": "3652", "country": "CH", "address": "Staatsstrasse 16b", "city": "Hilterfingen", "address2": ""}},
{"name": "Hinterkappelen (Provisorium)", "type": "m", "location": {"geo": {"lon": 7.3793063, "lat": 46.965837}, "zip": "3032", "country": "CH", "address": "Kappelenring 11c", "city": "Hinterkappelen", "address2": ""}},
{"name": "H\\u00fcnibach", "type": "m", "location": {"geo": {"lon": 7.6454474, "lat": 46.7451794}, "zip": "3626", "country": "CH", "address": "Staatsstrasse 134", "city": "H\\u00fcnibach", "address2": ""}},
{"name": "Ittigen", "type": "mm", "location": {"geo": {"lon": 7.4852772, "lat": 46.9742162}, "zip": "3063", "country": "CH", "address": "Talweg 6", "city": "Ittigen", "address2": ""}},
{"name": "Ittigen - Grauholz", "type": "soca", "location": {"geo": {"lon": 7.4778766, "lat": 46.9897356}, "zip": "3063", "country": "CH", "address": "Grauholz-S\\u00fcd A1", "city": "Ittigen", "address2": ""}},
{"name": "Kerzers", "type": "m", "location": {"geo": {"lon": 7.1939798, "lat": 46.9737039}, "zip": "3210", "country": "CH", "address": "Murtenstrasse 15", "city": "Kerzers", "address2": ""}},
{"name": "Konolfingen", "type": "m", "location": {"geo": {"lon": 7.6212211, "lat": 46.8754023}, "zip": "3510", "country": "CH", "address": "Thunstrasse 21", "city": "Konolfingen", "address2": ""}},
{"name": "K\\u00f6niz - Bl\\u00e4uacker", "type": "mm", "location": {"geo": {"lon": 7.414453, "lat": 46.9235082}, "zip": "3098", "country": "CH", "address": "Bl\\u00e4uacker 10", "city": "K\\u00f6niz", "address2": ""}},
{"name": "La Roche", "type": "m", "location": {"geo": {"lon": 7.1419287, "lat": 46.6980151}, "zip": "1634", "country": "CH", "address": "Haut de Scherwil 2", "city": "La Roche FR", "address2": ""}},
{"name": "La Tour de Tr\\u00eame", "type": "mm", "location": {"geo": {"lon": 7.0758334, "lat": 46.6004826}, "zip": "1635", "country": "CH", "address": "Route de Pra-Riond 2", "city": "La Tour-de-Tr\\u00eame", "address2": ""}},
{"name": "La Tour-de-Peilz", "type": "m", "location": {"geo": {"lon": 6.8579143, "lat": 46.4525336}, "zip": "1814", "country": "CH", "address": "Place des Anciens-Foss\\u00e9s 10B", "city": "La Tour-de-Peilz", "address2": ""}},
{"name": "La Tour-de-Tr\\u00eame", "type": "mgls", "location": {"geo": {"lon": 7.0751656, "lat": 46.6007953}, "zip": "1635", "country": "CH", "address": "Rte de Pra-Riond 4", "city": "La Tour-de-Tr\\u00eame", "address2": ""}},
{"name": "La Vall\\u00e9e", "type": "m", "location": {"geo": {"lon": 6.2305712, "lat": 46.6058382}, "zip": "1347", "country": "CH", "address": "Rue de la Gare 7", "city": "Le Sentier", "address2": ""}},
{"name": "Lancy-Onex", "type": "mm", "location": {"geo": {"lon": 6.1100997, "lat": 46.1885214}, "zip": "1213", "country": "CH", "address": "Rue des Bossons 78-80", "city": "Petit-Lancy", "address2": ""}},
{"name": "Langnau i.E.", "type": "mm", "location": {"geo": {"lon": 7.787702, "lat": 46.9398058}, "zip": "3550", "country": "CH", "address": "Schlossstrasse 1a", "city": "Langnau i. E.", "address2": ""}},
{"name": "Lausanne", "type": "soca", "location": {"geo": {"lon": 6.605965, "lat": 46.517094}, "zip": "1007", "country": "CH", "address": "Av. des Figuires 32", "city": "Lausanne", "address2": ""}},
{"name": "Lausanne - Bellevaux", "type": "m", "location": {"geo": {"lon": 6.6333517, "lat": 46.5376065}, "zip": "1018", "country": "CH", "address": "Route Aloys-Fauquez 97", "city": "Lausanne", "address2": ""}},
{"name": "Lausanne - Bergi\\u00e8res", "type": "mm", "location": {"geo": {"lon": 6.618466, "lat": 46.5314548}, "zip": "1004", "country": "CH", "address": "Avenue des Bergi\\u00e8res 50", "city": "Lausanne", "address2": ""}},
{"name": "Lausanne - Chailly", "type": "mm", "location": {"geo": {"lon": 6.6515176, "lat": 46.5273163}, "zip": "1012", "country": "CH", "address": "Avenue de la Vallonnette 2", "city": "Lausanne", "address2": ""}},
{"name": "Lausanne - Closelet", "type": "mm", "location": {"geo": {"lon": 6.6327124, "lat": 46.5148689}, "zip": "1006", "country": "CH", "address": "Avenue d'Ouchy 11", "city": "Lausanne", "address2": ""}},
{"name": "Lausanne - Cour", "type": "m", "location": {"geo": {"lon": 6.6176221, "lat": 46.5157505}, "zip": "1007", "country": "CH", "address": "Avenue de Cour 36", "city": "Lausanne", "address2": ""}},
{"name": "Lausanne - La Borde", "type": "m", "location": {"geo": {"lon": 6.6346501, "lat": 46.5256689}, "zip": "1018", "country": "CH", "address": "Rue de la Borde 3B", "city": "Lausanne", "address2": ""}},
{"name": "Lausanne - La Harpe", "type": "m", "location": {"geo": {"lon": 6.62609, "lat": 46.5124378}, "zip": "1007", "country": "CH", "address": "Avenue de la Harpe 17", "city": "Lausanne", "address2": ""}},
{"name": "Lausanne - La Maladi\\u00e8re", "type": "shell", "location": {"geo": {"lon": 6.6073333, "lat": 46.5170701}, "zip": "1007", "country": "CH", "address": "Av. des Figuiers 22", "city": "Lausanne", "address2": ""}},
{"name": "Lausanne - La Sallaz", "type": "m", "location": {"geo": {"lon": 6.6467899, "lat": 46.5333108}, "zip": "1010", "country": "CH", "address": "Route de Berne 1", "city": "Lausanne", "address2": ""}},
{"name": "Lausanne - Maupas", "type": "dmp", "location": {"geo": {"lon": 6.6230282, "lat": 46.5253972}, "zip": "1004", "country": "CH", "address": "Rue du Maupas 69", "city": "Lausanne", "address2": ""}},
{"name": "Lausanne - Montbenon", "type": "shell", "location": {"geo": {"lon": 6.6258276, "lat": 46.5195069}, "zip": "1003", "country": "CH", "address": "Chemin de Mornex 36", "city": "Lausanne", "address2": ""}},
{"name": "Lausanne - M\\u00e9tropole", "type": "mmm", "location": {"geo": {"lon": 6.6269854, "lat": 46.5227583}, "zip": "1003", "country": "CH", "address": "Rue des Terreaux 25", "city": "Lausanne", "address2": ""}},
{"name": "Lausanne - Ouchy", "type": "m", "location": {"geo": {"lon": 6.624761, "lat": 46.5080922}, "zip": "1007", "country": "CH", "address": "Avenue de Rhodanie 2", "city": "Lausanne", "address2": ""}},
{"name": "Lausanne - Pontaise", "type": "m", "location": {"geo": {"lon": 6.6283222, "lat": 46.5304639}, "zip": "1018", "country": "CH", "address": "Avenue Jomini 11", "city": "Lausanne", "address2": ""}},
{"name": "Lausanne - Saint-Paul", "type": "m", "location": {"geo": {"lon": 6.615942, "lat": 46.5277032}, "zip": "1004", "country": "CH", "address": "Avenue d'Echallens 63", "city": "Lausanne", "address2": ""}},
{"name": "Lausanne - S\\u00e9velin", "type": "m", "location": {"geo": {"lon": 6.6166202, "lat": 46.5216627}, "zip": "1007", "country": "CH", "address": "Av. de S\\u00e9velin 2 Ab", "city": "Lausanne", "address2": ""}},
{"name": "Lausanne - Valmont", "type": "shell", "location": {"geo": {"lon": 6.655375, "lat": 46.5354753}, "zip": "1010", "country": "CH", "address": "Route d'Oron 37", "city": "Lausanne", "address2": ""}},
{"name": "Lavaux", "type": "dmp", "location": {"geo": {"lon": 6.7105858, "lat": 46.5051209}, "zip": "1091", "country": "CH", "address": "Restoroute de Lavaux", "city": "Aran", "address2": ""}},
{"name": "Le Bouveret", "type": "m", "location": {"geo": {"lon": 6.8606288, "lat": 46.3773421}, "zip": "1897", "country": "CH", "address": "En Bellossy", "city": "Bouveret", "address2": ""}},
{"name": "Le Ch\\u00e2ble", "type": "dmp", "location": {"geo": {"lon": 7.2140344, "lat": 46.080919}, "zip": "1934", "country": "CH", "address": "Route de Verbier 15", "city": "Le Ch\\u00e2ble VS", "address2": ""}},
{"name": "Le Lignon", "type": "m", "location": {"geo": {"lon": 6.0963765, "lat": 46.2034469}, "zip": "1219", "country": "CH", "address": "Place du Lignon 29 A", "city": "Le Lignon", "address2": ""}},
{"name": "Le Lignon", "type": "shell", "location": {"geo": {"lon": 6.1094413, "lat": 46.2064893}, "zip": "1219", "country": "CH", "address": "Avenue de l'Ain 5", "city": "Le Lignon", "address2": ""}},
{"name": "Leuk", "type": "dmp", "location": {"geo": {"lon": 7.6342235, "lat": 46.3166844}, "zip": "3953", "country": "CH", "address": "Konsumgenossenschaft", "city": "Leuk Stadt", "address2": ""}},
{"name": "Leukerbad", "type": "m", "location": {"geo": {"lon": 7.6252028, "lat": 46.377942}, "zip": "3954", "country": "CH", "address": "Kantonstrasse", "city": "Leukerbad", "address2": ""}},
{"name": "Leysin", "type": "dmp", "location": {"geo": {"lon": 7.0155421, "lat": 46.3452121}, "zip": "1854", "country": "CH", "address": "Route de la Cit\\u00e9 16", "city": "Leysin", "address2": ""}},
{"name": "Leytron", "type": "dmp", "location": {"geo": {"lon": 7.2085967, "lat": 46.1872356}, "zip": "1912", "country": "CH", "address": "Giro Union", "city": "Leytron", "address2": ""}},
{"name": "M Boudry", "type": "m", "location": {"geo": {"lon": 6.8405634, "lat": 46.9505063}, "zip": "2017", "country": "CH", "address": "Avenue du Coll\\u00e8ge 37", "city": "Boudry", "address2": ""}},
{"name": "M-Express Bulle", "type": "m", "location": {"geo": {"lon": 7.05392, "lat": 46.6192389}, "zip": "1630", "country": "CH", "address": "Place de la Gare", "city": "Bulle", "address2": ""}},
{"name": "M-Express Fribourg Gare", "type": "m", "location": {"geo": {"lon": 7.1500941, "lat": 46.8033304}, "zip": "1701", "country": "CH", "address": "Rue Louis-d'Affry 2", "city": "Fribourg", "address2": ""}},
{"name": "M-Express Pont-Rouge", "type": "m", "location": {"geo": {"lon": 6.1274789, "lat": 46.1872348}, "zip": "1212", "country": "CH", "address": "Esplanade de Pont-Rouge 2", "city": "Grand-Lancy", "address2": ""}},
{"name": "MP Aigle", "type": "dmp", "location": {"geo": {"lon": 6.9670583, "lat": 46.3170714}, "zip": "1860", "country": "CH", "address": "Rue du Rhone 7", "city": "Aigle", "address2": ""}},
{"name": "MP La Sarraz", "type": "dmp", "location": {"geo": {"lon": 6.5094894, "lat": 46.6539794}, "zip": "1315", "country": "CH", "address": "Chemin des Pr\\u00e9s-Mor\\u00e9s 2", "city": "La Sarraz", "address2": ""}},
{"name": "Marly - Centre", "type": "mm", "location": {"geo": {"lon": 7.1612389, "lat": 46.7761541}, "zip": "1723", "country": "CH", "address": "Route des Pralettes 1", "city": "Marly", "address2": ""}},
{"name": "Martigny", "type": "mgls", "location": {"geo": {"lon": 7.0858975, "lat": 46.1057968}, "zip": "1920", "country": "CH", "address": "Rue des Avouillons 3", "city": "Martigny", "address2": ""}},
{"name": "Martigny", "type": "mig", "location": {"geo": {"lon": 7.078928, "lat": 46.1058182}, "zip": "1920", "country": "CH", "address": "Avenue de la gare 53", "city": "Martigny", "address2": ""}},
{"name": "Martigny - Manoir", "type": "mmm", "location": {"geo": {"lon": 7.0718577, "lat": 46.1017023}, "zip": "1920", "country": "CH", "address": "Rue du Manoir 1", "city": "Martigny", "address2": ""}},
{"name": "Martigny Finettes", "type": "m", "location": {"geo": {"lon": 7.0869748, "lat": 46.1054118}, "zip": "1920", "country": "CH", "address": "Rue des Avouillons 1", "city": "Martigny", "address2": ""}},
{"name": "Martigny Quartz Center", "type": "fm", "location": {"geo": {"lon": 7.0765592, "lat": 46.1117763}, "zip": "1920", "country": "CH", "address": "Avenue de Fully 63", "city": "Martigny", "address2": ""}},
{"name": "Meyrin", "type": "mm", "location": {"geo": {"lon": 6.0826195, "lat": 46.2319199}, "zip": "1217", "country": "CH", "address": "Avenue de Feuillasse 24", "city": "Meyrin", "address2": ""}},
{"name": "Meyrin", "type": "shell", "location": {"geo": {"lon": 6.0783775, "lat": 46.2273525}, "zip": "1217", "country": "CH", "address": "Rte de Meyrin 248", "city": "Meyrin", "address2": ""}},
{"name": "Meyrin", "type": "soca", "location": {"geo": {"lon": 6.0547036, "lat": 46.2340918}, "zip": "1217", "country": "CH", "address": "Rte de Meyrin 372", "city": "Meyrin", "address2": ""}},
{"name": "Mies", "type": "shell", "location": {"geo": {"lon": 6.1671648, "lat": 46.2961134}, "zip": "1295", "country": "CH", "address": "Route Suisse 3", "city": "Mies", "address2": ""}},
{"name": "Montagny", "type": "mm", "location": {"geo": {"lon": 6.6213952, "lat": 46.7879937}, "zip": "1442", "country": "CH", "address": "En Chamard", "city": "Montagny-pr\\u00e8s-Yverdon", "address2": ""}},
{"name": "Montagny", "type": "mgls", "location": {"geo": {"lon": 6.6206996, "lat": 46.788334}, "zip": "1442", "country": "CH", "address": "En Chamard 16", "city": "Montagny-pr\\u00e8s-Yverdon", "address2": ""}},
{"name": "Monthey - M Central", "type": "mmm", "location": {"geo": {"lon": 6.9522265, "lat": 46.2535582}, "zip": "1870", "country": "CH", "address": "Avenue de la Gare 36", "city": "Monthey", "address2": ""}},
{"name": "Montreux", "type": "mm", "location": {"geo": {"lon": 6.9100946, "lat": 46.4324309}, "zip": "1820", "country": "CH", "address": "Place du March\\u00e9 6", "city": "Montreux", "address2": ""}},
{"name": "Montreux", "type": "soca", "location": {"geo": {"lon": 6.9053644, "lat": 46.4394305}, "zip": "1820", "country": "CH", "address": "Avenue Claude Nobs 6", "city": "Montreux", "address2": ""}},
{"name": "Montreux", "type": "mig", "location": {"geo": {"lon": 6.9103016, "lat": 46.4358712}, "zip": "1820", "country": "CH", "address": "Avenue des Alpes 74", "city": "Montreux", "address2": ""}},
{"name": "Morges", "type": "mm", "location": {"geo": {"lon": 6.4948939, "lat": 46.509724}, "zip": "1110", "country": "CH", "address": "Rue de la gare 19", "city": "Morges", "address2": ""}},
{"name": "Morges", "type": "mgls", "location": {"geo": {"lon": 6.512351, "lat": 46.5175234}, "zip": "1110", "country": "CH", "address": "Route de Lausanne 73", "city": "Morges", "address2": ""}},
{"name": "Moudon", "type": "mm", "location": {"geo": {"lon": 6.8005522, "lat": 46.6695393}, "zip": "1510", "country": "CH", "address": "Avenue de Pr\\u00e9ville", "city": "Moudon", "address2": ""}},
{"name": "Muri bei Bern - Bike World", "type": "spez", "location": {"geo": {"lon": 7.503635, "lat": 46.9261433}, "zip": "3073", "country": "CH", "address": "Feldstrasse 30", "city": "Muri bei Bern", "address2": ""}},
{"name": "Murten/Morat", "type": "mm", "location": {"geo": {"lon": 7.1227066, "lat": 46.9300105}, "zip": "3280", "country": "CH", "address": "Bernstrasse 18", "city": "Murten", "address2": ""}},
{"name": "M\\u00e9zi\\u00e8res", "type": "dmp", "location": {"geo": {"lon": 6.7698099, "lat": 46.5963744}, "zip": "1083", "country": "CH", "address": "Route de la Croix d'Or 2", "city": "M\\u00e9zi\\u00e8res VD", "address2": ""}},
{"name": "M\\u00fcnsingen", "type": "mm", "location": {"geo": {"lon": 7.5601405, "lat": 46.8731986}, "zip": "3110", "country": "CH", "address": "Bahnhofplatz 5", "city": "M\\u00fcnsingen", "address2": ""}},
{"name": "Neuch\\u00e2tel - Cadolles", "type": "m", "location": {"geo": {"lon": 6.9247704, "lat": 46.9982008}, "zip": "2000", "country": "CH", "address": "Rue du Plan 28", "city": "Neuch\\u00e2tel", "address2": ""}},
{"name": "Neuch\\u00e2tel - H\\u00f4pital", "type": "mm", "location": {"geo": {"lon": 6.929815, "lat": 46.991987}, "zip": "2000", "country": "CH", "address": "Rue de l'H\\u00f4pital 12", "city": "Neuch\\u00e2tel", "address2": ""}},
{"name": "Neydens (F)", "type": "m", "location": {"geo": {"lon": 6.0976331, "lat": 46.123435}, "zip": "74 160", "country": "FR", "address": "500, route des Envignes 74", "city": "Neydens", "address2": ""}},
{"name": "Neyruz", "type": "m", "location": {"geo": {"lon": 7.0655105, "lat": 46.7671371}, "zip": "1740", "country": "CH", "address": "Place de la Gare 10", "city": "Neyruz FR", "address2": ""}},
{"name": "Noville", "type": "m", "location": {"geo": {"lon": 6.9209862, "lat": 46.388792}, "zip": "1845", "country": "CH", "address": "Route du Simplon", "city": "Noville", "address2": ""}},
{"name": "Noville", "type": "mgls", "location": {"geo": {"lon": 6.9204954, "lat": 46.3864173}, "zip": "1845", "country": "CH", "address": "Route du Simplon24", "city": "Noville", "address2": ""}},
{"name": "Nyon", "type": "soca", "location": {"geo": {"lon": 6.2167268, "lat": 46.3824876}, "zip": "1260", "country": "CH", "address": "Impasse de Champ-Colin 12", "city": "Nyon", "address2": ""}},
{"name": "Nyon - La Combe", "type": "mmm", "location": {"geo": {"lon": 6.2348109, "lat": 46.3827028}, "zip": "1260", "country": "CH", "address": "Rue de la Mor\\u00e2che 6", "city": "Nyon", "address2": ""}},
{"name": "Nyon - Porte de Nyon", "type": "fm", "location": {"geo": {"lon": 6.2211689, "lat": 46.38904}, "zip": "1260", "country": "CH", "address": "chemin de la Fontaine 1", "city": "Nyon", "address2": ""}},
{"name": "Onex", "type": "shell", "location": {"geo": {"lon": 6.0977005, "lat": 46.1822931}, "zip": "1213", "country": "CH", "address": "Rte de Chancy 142", "city": "Onex", "address2": ""}},
{"name": "Onex", "type": "soca", "location": {"geo": {"lon": 6.1035615, "lat": 46.1846747}, "zip": "1213", "country": "CH", "address": "Route de Chancy 113", "city": "Onex", "address2": ""}},
{"name": "Orbe", "type": "m", "location": {"geo": {"lon": 6.5313631, "lat": 46.7237876}, "zip": "1350", "country": "CH", "address": "Rue des Terreaux 22", "city": "Orbe", "address2": ""}},
{"name": "Oron-la-Ville", "type": "m", "location": {"geo": {"lon": 6.8257176, "lat": 46.5719556}, "zip": "1610", "country": "CH", "address": "Route de Lausanne 2", "city": "Oron-la-Ville", "address2": ""}},
{"name": "Ostermundigen", "type": "mm", "location": {"geo": {"lon": 7.4959824, "lat": 46.9569316}, "zip": "3072", "country": "CH", "address": "Bernstrasse 114", "city": "Ostermundigen", "address2": ""}},
{"name": "Outlet Roche", "type": "spez", "location": {"geo": {"lon": 6.9335161, "lat": 46.3544176}, "zip": "1852", "country": "CH", "address": "Chemin Vers le Stand", "city": "Roche", "address2": ""}},
{"name": "Outlet Romanel", "type": "spez", "location": {"geo": {"lon": 6.6061476, "lat": 46.5738718}, "zip": "1032", "country": "CH", "address": "rte de Neuch\\u00e2tel 10", "city": "Romanel-sur-Lausanne", "address2": ""}},
{"name": "Paudex", "type": "soca", "location": {"geo": {"lon": 6.6733338, "lat": 46.5062795}, "zip": "1094", "country": "CH", "address": "Route du Simplon 20", "city": "Paudex", "address2": ""}},
{"name": "Payerne", "type": "mm", "location": {"geo": {"lon": 6.9396282, "lat": 46.8201631}, "zip": "1530", "country": "CH", "address": "Rue du Temple 19", "city": "Payerne", "address2": ""}},
{"name": "Payerne", "type": "mig", "location": {"geo": {"lon": 6.9397961, "lat": 46.8196551}, "zip": "1530", "country": "CH", "address": "Rue de la Gare 14", "city": "Payerne", "address2": ""}},
{"name": "Carouge", "type": "m", "location": {"geo": {"lon": 6.1407522, "lat": 46.1834886}, "zip": "1227", "country": "CH", "address": "Rue du March\\u00e9 16", "city": "Carouge GE", "address2": ""}},
{"name": "Carouge - Acacias", "type": "m", "location": {"geo": {"lon": 6.1376221, "lat": 46.1914417}, "zip": "1227", "country": "CH", "address": "Rue Gustave-Revilliod 4", "city": "Carouge GE", "address2": ""}},
{"name": "Carouge - MParc La Praille", "type": "fm", "location": {"geo": {"lon": 6.1343696, "lat": 46.1844407}, "zip": "1227", "country": "CH", "address": "Avenue Vibert 32", "city": "Carouge GE", "address2": ""}},
{"name": "Peseux", "type": "mm", "location": {"geo": {"lon": 6.8895441, "lat": 46.9859094}, "zip": "2034", "country": "CH", "address": "Rue J\\u00e4mes-Paris 4", "city": "Peseux", "address2": ""}},
{"name": "Plaffeien", "type": "m", "location": {"geo": {"lon": 7.2910651, "lat": 46.7397917}, "zip": "1716", "country": "CH", "address": "Obere Matte 9", "city": "Plaffeien", "address2": ""}},
{"name": "Plan-les-Ouates", "type": "mm", "location": {"geo": {"lon": 6.1155683, "lat": 46.167632}, "zip": "1228", "country": "CH", "address": "Route de Saint-Julien 176", "city": "Plan-les-Ouates", "address2": ""}},
{"name": "Plan-les-Ouates", "type": "mgls", "location": {"geo": {"lon": 6.11076, "lat": 46.1648588}, "zip": "1228", "country": "CH", "address": "Route de Saint-Julien 185", "city": "Plan-les-Ouates", "address2": ""}},
{"name": "Popup M-Budget gare Lausanne", "type": "spez", "location": {"geo": {"lon": 6.6282054, "lat": 46.5164091}, "zip": "1006", "country": "CH", "address": "Rue du Simplon 32", "city": "Lausanne", "address2": ""}},
{"name": "Porte de Versoix", "type": "mm", "location": {"geo": {"lon": 6.1674765, "lat": 46.2744374}, "zip": "1290", "country": "CH", "address": "Chemin de l'ancien p\\u00e9age 1", "city": "Versoix", "address2": ""}},
{"name": "Prilly", "type": "m", "location": {"geo": {"lon": 6.6077373, "lat": 46.5332121}, "zip": "1008", "country": "CH", "address": "Route de Cossonay 9", "city": "Prilly", "address2": ""}},
{"name": "Prilly", "type": "soca", "location": {"geo": {"lon": 6.6027559, "lat": 46.5274181}, "zip": "1008", "country": "CH", "address": "Route de Renens 8", "city": "Prilly", "address2": ""}},
{"name": "Prilly - Malley", "type": "m", "location": {"geo": {"lon": 6.6028429, "lat": 46.526852}, "zip": "1008", "country": "CH", "address": "Chemin du Viaduc 1", "city": "Prilly", "address2": ""}},
{"name": "Prilly - ch. du Viaduc", "type": "shell", "location": {"geo": {"lon": 6.6028735, "lat": 46.527401}, "zip": "1008", "country": "CH", "address": "Ch. du Viaduc 1", "city": "Prilly", "address2": ""}},
{"name": "Prilly - rte de Cossonay", "type": "mgls", "location": {"geo": {"lon": 6.6011857, "lat": 46.537932}, "zip": "1008", "country": "CH", "address": "Rte de Cossonay 66", "city": "Prilly", "address2": ""}},
{"name": "Pr\\u00e9verenges", "type": "m", "location": {"geo": {"lon": 6.5166645, "lat": 46.5188722}, "zip": "1028", "country": "CH", "address": "Chemin du Vuasset 2", "city": "Pr\\u00e9verenges", "address2": ""}},
{"name": "Puidoux", "type": "dmp", "location": {"geo": {"lon": 6.769391, "lat": 46.4922982}, "zip": "1070", "country": "CH", "address": "Chemin de Publoz 11", "city": "Puidoux", "address2": ""}},
{"name": "Pully", "type": "mm", "location": {"geo": {"lon": 6.6596672, "lat": 46.5116743}, "zip": "1009", "country": "CH", "address": "Chemin du Pr\\u00e9-de-la-Tour 3", "city": "Pully", "address2": ""}},
{"name": "Renens", "type": "mgls", "location": {"geo": {"lon": 6.5852658, "lat": 46.5339363}, "zip": "1020", "country": "CH", "address": "Rue du Silo 7", "city": "Renens VD", "address2": ""}},
{"name": "Renens - Florissant", "type": "m", "location": {"geo": {"lon": 6.5977745, "lat": 46.5309348}, "zip": "1020", "country": "CH", "address": "Avenue de Florissant 38", "city": "Renens VD", "address2": ""}},
{"name": "Renens - M\\u00e9tropole", "type": "mm", "location": {"geo": {"lon": 6.580878, "lat": 46.5385453}, "zip": "1020", "country": "CH", "address": "Rue de la M\\u00e8bre 9", "city": "Renens VD", "address2": ""}},
{"name": "Renens OBI", "type": "fm", "location": {"geo": {"lon": 6.5855766, "lat": 46.5332369}, "zip": "1020", "country": "CH", "address": "Avenue du Silo 11", "city": "Renens VD", "address2": ""}},
{"name": "Renens Silo", "type": "m", "location": {"geo": {"lon": 6.5864409, "lat": 46.5329068}, "zip": "1020", "country": "CH", "address": "Rue du Silo 11", "city": "Renens", "address2": ""}},
{"name": "Rolle", "type": "mm", "location": {"geo": {"lon": 6.3383807, "lat": 46.4611}, "zip": "1180", "country": "CH", "address": "Av. de la Gare 17", "city": "Rolle", "address2": ""}},
{"name": "Rolle", "type": "mgls", "location": {"geo": {"lon": 6.3350193, "lat": 46.4627709}, "zip": "1180", "country": "CH", "address": "Route de la Vall\\u00e9e 7", "city": "Rolle", "address2": ""}},
{"name": "Romanel-sur-Lausanne", "type": "mmm", "location": {"geo": {"lon": 6.6130138, "lat": 46.5590513}, "zip": "1032", "country": "CH", "address": "En F\\u00e9lezin", "city": "Romanel-s-Lausanne", "address2": ""}},
{"name": "Romont", "type": "mm", "location": {"geo": {"lon": 6.9126508, "lat": 46.6926707}, "zip": "1680", "country": "CH", "address": "Avenue de la Gare 7", "city": "Romont FR", "address2": ""}},
{"name": "R\\u00e9chy", "type": "dmp", "location": {"geo": {"lon": 7.4944589, "lat": 46.2617504}, "zip": "3966", "country": "CH", "address": "Place Pranniviers 8", "city": "R\\u00e9chy", "address2": ""}},
{"name": "Sainte-Croix", "type": "m", "location": {"geo": {"lon": 6.5032791, "lat": 46.819495}, "zip": "1450", "country": "CH", "address": "Rue de l'Industrie 21", "city": "Ste-Croix", "address2": ""}},
{"name": "Savi\\u00e8se", "type": "m", "location": {"geo": {"lon": 7.3519659, "lat": 46.2502976}, "zip": "1965", "country": "CH", "address": "Centre Commercial du Stade", "city": "Savi\\u00e8se", "address2": ""}},
{"name": "Schwarzenburg", "type": "m", "location": {"geo": {"lon": 7.339902, "lat": 46.8177012}, "zip": "3150", "country": "CH", "address": "Freiburgstrasse 5b", "city": "Schwarzenburg", "address2": ""}},
{"name": "Sembrancher", "type": "m", "location": {"geo": {"lon": 7.1446967, "lat": 46.0791549}, "zip": "1933", "country": "CH", "address": "Rue de la Chapalette 1", "city": "Sembrancher", "address2": ""}},
{"name": "Shell Meyrin-Parc", "type": "shell", "location": {"geo": {"lon": 6.0848783, "lat": 46.2305986}, "zip": "1217", "country": "CH", "address": "Avenue de Mategnin 45", "city": "Meyrin", "address2": ""}},
{"name": "Shell Relais du St.Bernard", "type": "shell", "location": {"geo": {"lon": 7.0605196, "lat": 46.1264947}, "zip": "1920", "country": "CH", "address": "Relais du St-Bernard A9", "city": "Martigny", "address2": ""}},
{"name": "Sierre", "type": "mm", "location": {"geo": {"lon": 7.5291519, "lat": 46.292358}, "zip": "3960", "country": "CH", "address": "Avenue G\\u00e9n\\u00e9ral Guisan", "city": "Sierre", "address2": ""}},
{"name": "Sierre Rossfeld", "type": "fm", "location": {"geo": {"lon": 7.5133829, "lat": 46.2814938}, "zip": "3960", "country": "CH", "address": "Rte des Lacustres", "city": "Sierre", "address2": ""}},
{"name": "Sion", "type": "mgls", "location": {"geo": {"lon": 7.3452206, "lat": 46.2290537}, "zip": "1950", "country": "CH", "address": "Route de Lausanne 100", "city": "Sion", "address2": ""}},
{"name": "Sion - Le Ritz", "type": "m", "location": {"geo": {"lon": 7.3595336, "lat": 46.2358562}, "zip": "1950", "country": "CH", "address": "Avenue Ritz 31", "city": "Sion", "address2": ""}},
{"name": "Sion - M\\u00e9tropole", "type": "mmm", "location": {"geo": {"lon": 7.356213, "lat": 46.2286124}, "zip": "1950", "country": "CH", "address": "Avenue de France 14-20", "city": "Sion", "address2": ""}},
{"name": "Sion - Tourbillon Center", "type": "m", "location": {"geo": {"lon": 7.3843456, "lat": 46.2314201}, "zip": "1950", "country": "CH", "address": "Avenue Grand-Champsec 30", "city": "Sion", "address2": ""}},
{"name": "Sion Outlet", "type": "spez", "location": {"geo": {"lon": 7.3785208, "lat": 46.2281227}, "zip": "1950", "country": "CH", "address": "Rue du Man\\u00e8ge 2", "city": "Sion", "address2": ""}},
{"name": "Spiez - Terminus", "type": "mm", "location": {"geo": {"lon": 7.6817159, "lat": 46.6857824}, "zip": "3700", "country": "CH", "address": "Bahnhofstrasse", "city": "Spiez", "address2": ""}},
{"name": "St-Maurice", "type": "m", "location": {"geo": {"lon": 7.0052498, "lat": 46.2147953}, "zip": "1890", "country": "CH", "address": "Av. du Simplon 15", "city": "St-Maurice", "address2": ""}},
{"name": "St. Niklaus", "type": "dmp", "location": {"geo": {"lon": 7.8064848, "lat": 46.1810239}, "zip": "3924", "country": "CH", "address": "Eyastrasse 1", "city": "St. Niklaus VS", "address2": ""}},
{"name": "Steffisburg", "type": "m", "location": {"geo": {"lon": 7.6335904, "lat": 46.7810832}, "zip": "3612", "country": "CH", "address": "Oberdorfstrasse 33", "city": "Steffisburg", "address2": ""}},
{"name": "Steffisburg", "type": "mgls", "location": {"geo": {"lon": 7.6245157, "lat": 46.76586}, "zip": "3613", "country": "CH", "address": "Bernstrasse 39", "city": "Steffisburg", "address2": ""}},
{"name": "Steg", "type": "m", "location": {"geo": {"lon": 7.7453717, "lat": 46.3147018}, "zip": "3940", "country": "CH", "address": "Bahnhofstrasse", "city": "Steg VS", "address2": ""}},
{"name": "Steg", "type": "mgls", "location": {"geo": {"lon": 7.750871, "lat": 46.3062985}, "zip": "3940", "country": "CH", "address": "Kantonsstrasse 30", "city": "Steg VS", "address2": ""}},
{"name": "Sugiez", "type": "mgls", "location": {"geo": {"lon": 7.1238781, "lat": 46.9665241}, "zip": "1786", "country": "CH", "address": "Route du P\\u00e9age 31a", "city": "Sugiez", "address2": ""}},
{"name": "Susten", "type": "dmp", "location": {"geo": {"lon": 7.6407791, "lat": 46.3114821}, "zip": "3952", "country": "CH", "address": "Sustenstrasse 5", "city": "Susten", "address2": ""}},
{"name": "Taesch", "type": "dmp", "location": {"geo": {"lon": 7.77679, "lat": 46.0709528}, "zip": "3929", "country": "CH", "address": "Neue Kantonstrasse", "city": "T\\u00e4sch", "address2": ""}},
{"name": "Thierrens", "type": "dmp", "location": {"geo": {"lon": 6.7550064, "lat": 46.7044032}, "zip": "1410", "country": "CH", "address": "Rue du Coll\\u00e8ge 6", "city": "Thierrens", "address2": ""}},
{"name": "Thoiry (F)", "type": "mmm", "location": {"geo": {"lon": 5.9941326, "lat": 46.2286354}, "zip": "01710", "country": "FR", "address": "CC Val Thoiry", "city": "Thoiry", "address2": ""}},
{"name": "Thun", "type": "shell", "location": {"geo": {"lon": 7.6275516, "lat": 46.7542958}, "zip": "3600", "country": "CH", "address": "Frutigenstrasse 18", "city": "Thun", "address2": ""}},
{"name": "Thun - B\\u00e4lliz", "type": "mm", "location": {"geo": {"lon": 7.6266358, "lat": 46.7601164}, "zip": "3600", "country": "CH", "address": "B\\u00e4lliz 2", "city": "Thun", "address2": ""}},
{"name": "Thun - D\\u00fcrrenast", "type": "m", "location": {"geo": {"lon": 7.6261582, "lat": 46.7450418}, "zip": "3604", "country": "CH", "address": "Frutigenstrasse 60", "city": "Thun", "address2": ""}},
{"name": "Thun - Oberland", "type": "mmm", "location": {"geo": {"lon": 7.614778, "lat": 46.7447598}, "zip": "3604", "country": "CH", "address": "Talackerstrasse 62", "city": "Thun", "address2": ""}},
{"name": "Thun - Panorama Center", "type": "fm", "location": {"geo": {"lon": 7.6053619, "lat": 46.7441475}, "zip": "3604", "country": "CH", "address": "Weststrasse 14", "city": "Thun", "address2": ""}},
{"name": "Thun - Weststrasse", "type": "mgls", "location": {"geo": {"lon": 7.6076245, "lat": 46.7449484}, "zip": "3600", "country": "CH", "address": "Weststrasse 10", "city": "Thun", "address2": ""}},
{"name": "Th\\u00f4nex", "type": "mm", "location": {"geo": {"lon": 6.19969, "lat": 46.193039}, "zip": "1226", "country": "CH", "address": "Rue de Gen\\u00e8ve 92", "city": "Th\\u00f4nex", "address2": ""}},
{"name": "Th\\u00f4nex", "type": "shell", "location": {"geo": {"lon": 6.2128684, "lat": 46.1986526}, "zip": "1226", "country": "CH", "address": "Route d'Ambilly 3", "city": "Th\\u00f4nex", "address2": ""}},
{"name": "Uetendorf", "type": "m", "location": {"geo": {"lon": 7.5741096, "lat": 46.7739279}, "zip": "3661", "country": "CH", "address": "Dorfstrasse 21", "city": "Uetendorf", "address2": ""}},
{"name": "VOI Bern - Fellergut", "type": "voi", "location": {"geo": {"lon": 7.3902179, "lat": 46.9453512}, "zip": "3018", "country": "CH", "address": "M\\u00fchledorfstrasse 15", "city": "Bern", "address2": ""}},
{"name": "VOI Bern - Fischerm\\u00e4tteli", "type": "voi", "location": {"geo": {"lon": 7.4185558, "lat": 46.9413645}, "zip": "3008", "country": "CH", "address": "K\\u00f6nizstrasse 60", "city": "Bern", "address2": ""}},
{"name": "VOI Bern - Kramgasse", "type": "voi", "location": {"geo": {"lon": 7.4497459, "lat": 46.9481109}, "zip": "3011", "country": "CH", "address": "Kramgasse 54", "city": "Bern", "address2": ""}},
{"name": "VOI Bern - Schosshalde", "type": "voi", "location": {"geo": {"lon": 7.4629318, "lat": 46.9453775}, "zip": "3006", "country": "CH", "address": "Schossshaldenstrasse 16", "city": "Bern", "address2": ""}},
{"name": "VOI Bern - Spiegel", "type": "voi", "location": {"geo": {"lon": 7.433499, "lat": 46.9264088}, "zip": "3095", "country": "CH", "address": "Chasseralstrasse 156", "city": "Spiegel b. Bern", "address2": ""}},
{"name": "VOI Bern - Viktoriastrasse", "type": "voi", "location": {"geo": {"lon": 7.4545541, "lat": 46.9536364}, "zip": "3013", "country": "CH", "address": "Viktoriastrasse 49", "city": "Bern", "address2": ""}},
{"name": "VOI Boll", "type": "voi", "location": {"geo": {"lon": 7.5479454, "lat": 46.9546925}, "zip": "3067", "country": "CH", "address": "Kernstrasse 9", "city": "Boll", "address2": ""}},
{"name": "VOI Gen\\u00e8ve-Cirque", "type": "voi", "location": {"geo": {"lon": 6.1397642, "lat": 46.2010565}, "zip": "1204", "country": "CH", "address": "Place du Cirque 2", "city": "Gen\\u00e8ve", "address2": ""}},
{"name": "VOI Meyrin - Les Vergers", "type": "voi", "location": {"geo": {"lon": 6.0668592, "lat": 46.2309568}, "zip": "1217", "country": "CH", "address": "3, place de la Diversit\\u00e9", "city": "Meyrin", "address2": ""}},
{"name": "VOI Steffisburg", "type": "voi", "location": {"geo": {"lon": 7.6161447, "lat": 46.773617}, "zip": "3613", "country": "CH", "address": "Bahnhofstrasse 87", "city": "Steffisburg", "address2": ""}},
{"name": "VOI Wabern", "type": "voi", "location": {"geo": {"lon": 7.4523149, "lat": 46.9286391}, "zip": "3084", "country": "CH", "address": "Seftigenstrasse 259", "city": "Wabern", "address2": ""}},
{"name": "VOI Wichtrach", "type": "dmp", "location": {"geo": {"lon": 7.5753497, "lat": 46.850993}, "zip": "3114", "country": "CH", "address": "Dorfplatz 1", "city": "Wichtrach", "address2": ""}},
{"name": "Vallorbe", "type": "m", "location": {"geo": {"lon": 6.3777456, "lat": 46.7117213}, "zip": "1337", "country": "CH", "address": "Grand-Rue 23", "city": "Vallorbe", "address2": ""}},
{"name": "Verbier", "type": "m", "location": {"geo": {"lon": 7.2232795, "lat": 46.0966164}, "zip": "1936", "country": "CH", "address": "Les Arcades", "city": "Verbier", "address2": ""}},
{"name": "Vernier - Arcenter", "type": "m", "location": {"geo": {"lon": 6.0812106, "lat": 46.2151057}, "zip": "1214", "country": "CH", "address": "Route de Peney 2-4", "city": "Vernier", "address2": ""}},
{"name": "Vernier Outlet", "type": "spez", "location": {"geo": {"lon": 6.0869554, "lat": 46.2170639}, "zip": "1214", "country": "CH", "address": "Route de Vernier 184", "city": "Vernier", "address2": ""}},
{"name": "Versoix", "type": "mig", "location": {"geo": {"lon": 6.1658024, "lat": 46.2797694}, "zip": "1290", "country": "CH", "address": "Chemin Jean-Baptiste Vandelle 1", "city": "Versoix", "address2": ""}},
{"name": "Vevey - Midi Coindet", "type": "mm", "location": {"geo": {"lon": 6.8401817, "lat": 46.4636235}, "zip": "1800", "country": "CH", "address": "Av. Gustave Coindet 11", "city": "Vevey", "address2": ""}},
{"name": "Vevey Des 2 Gares", "type": "m", "location": {"geo": {"lon": 6.8421961, "lat": 46.464429}, "zip": "1800", "country": "CH", "address": "Rue des Moulins 5 b", "city": "Vevey", "address2": ""}},
{"name": "Villars-Ste-Croix", "type": "mgls", "location": {"geo": {"lon": 6.5589149, "lat": 46.5663916}, "zip": "1029", "country": "CH", "address": "Route de Cossonay 3", "city": "Villars-Ste-Croix", "address2": ""}},
{"name": "Villars-s/Gl\\u00e2ne - Cormanon", "type": "m", "location": {"geo": {"lon": 7.1335773, "lat": 46.7937778}, "zip": "1752", "country": "CH", "address": "Rue du centre 4", "city": "Villars-sur-Gl\\u00e2ne", "address2": ""}},
{"name": "Villars-sur-Gl\\u00e2ne", "type": "mgls", "location": {"geo": {"lon": 7.1228992, "lat": 46.7988222}, "zip": "1752", "country": "CH", "address": "rte de Moncor 8", "city": "Villars-sur-Gl\\u00e2ne", "address2": ""}},
{"name": "Villars-sur-Ollon", "type": "dmp", "location": {"geo": {"lon": 7.0441609, "lat": 46.3012515}, "zip": "1884", "country": "CH", "address": "Rue Centrale 99", "city": "Villars-sur-Ollon", "address2": ""}},
{"name": "Vionnaz", "type": "dmp", "location": {"geo": {"lon": 6.8985242, "lat": 46.3135922}, "zip": "1895", "country": "CH", "address": "Route du L\\u00e9man 33", "city": "Vionnaz", "address2": ""}},
{"name": "V\\u00e9troz", "type": "dmp", "location": {"geo": {"lon": 7.259816, "lat": 46.2154523}, "zip": "1963", "country": "CH", "address": "Rue de la Lizerne 7", "city": "V\\u00e9troz", "address2": ""}},
{"name": "Wabern", "type": "mgls", "location": {"geo": {"lon": 7.4580293, "lat": 46.9235631}, "zip": "3084", "country": "CH", "address": "Seftigenstrasse 350", "city": "Wabern", "address2": ""}},
{"name": "Wabern - Chly Wabere", "type": "mm", "location": {"geo": {"lon": 7.4597094, "lat": 46.9225103}, "zip": "3084", "country": "CH", "address": "Seftigenstrasse 368", "city": "Wabern", "address2": ""}},
{"name": "Worb", "type": "mm", "location": {"geo": {"lon": 7.5649883, "lat": 46.9266974}, "zip": "3076", "country": "CH", "address": "Richigenstrasse 1", "city": "Worb", "address2": ""}},
{"name": "Yverdon", "type": "shell", "location": {"geo": {"lon": 6.6494873, "lat": 46.7647855}, "zip": "1400", "country": "CH", "address": "route de Lausanne 20", "city": "Yverdon-les-Bains", "address2": ""}},
{"name": "Yverdon - M\\u00e9tropole", "type": "mmm", "location": {"geo": {"lon": 6.6357622, "lat": 46.7812351}, "zip": "1400", "country": "CH", "address": "Rue de Neuch\\u00e2tel 3", "city": "Yverdon-les-Bains", "address2": ""}},
{"name": "Yverdon Sud", "type": "m", "location": {"geo": {"lon": 6.6501591, "lat": 46.7665642}, "zip": "1400", "country": "CH", "address": "Rue de Lausanne 10", "city": "Yverdon-les-Bains", "address2": ""}},
{"name": "Yvonand", "type": "dmp", "location": {"geo": {"lon": 6.743063, "lat": 46.7996515}, "zip": "1462", "country": "CH", "address": "Rue des Vergers", "city": "Yvonand", "address2": ""}},
{"name": "Carouge - Vibert", "type": "mm", "location": {"geo": {"lon": 6.1344054, "lat": 46.1824507}, "zip": "1227", "country": "CH", "address": "Avenue Vibert 29", "city": "Carouge GE", "address2": ""}},
{"name": "Zermatt", "type": "mm", "location": {"geo": {"lon": 7.7481512, "lat": 46.0217113}, "zip": "3920", "country": "CH", "address": "Hofmattstrasse 12", "city": "Zermatt", "address2": ""}},
{"name": "Zollikofen", "type": "m", "location": {"geo": {"lon": 7.4570099, "lat": 46.9933993}, "zip": "3052", "country": "CH", "address": "Bernstrasse 103", "city": "Zollikofen", "address2": ""}},
{"name": "Zweisimmen", "type": "mm", "location": {"geo": {"lon": 7.3712741, "lat": 46.5539847}, "zip": "3770", "country": "CH", "address": "Saanenstrasse", "city": "Zweisimmen", "address2": ""}},
{"name": "Cointrin", "type": "mgls", "location": {"geo": {"lon": 6.1073222, "lat": 46.2253308}, "zip": "1216", "country": "CH", "address": "Av. Louis-Casa\\u00ef 74/76", "city": "Cointrin", "address2": ""}},
{"name": "Gd Saconnex - Le Pommier", "type": "m", "location": {"geo": {"lon": 6.1195597, "lat": 46.2285152}, "zip": "1218", "country": "CH", "address": "Rue Sonnex 20", "city": "Le Grand-Saconnex", "address2": ""}},
{"name": "Gen\\u00e8ve - Balexert", "type": "mmm", "location": {"geo": {"lon": 6.1129757, "lat": 46.2187738}, "zip": "1211", "country": "CH", "address": "Avenue Louis-Casa\\u00ef 27", "city": "Gen\\u00e8ve 28", "address2": ""}},
{"name": "Gen\\u00e8ve - Balexert", "type": "mgls", "location": {"geo": {"lon": 6.1129989, "lat": 46.2189827}, "zip": "1209", "country": "CH", "address": "Av. Louis Casa\\u00ef 27", "city": "Gen\\u00e8ve", "address2": ""}},
{"name": "Avry Centre", "type": "mmm", "location": {"geo": {"lon": 7.0781119, "lat": 46.7876479}, "zip": "1754", "country": "CH", "address": "Route de Matran 9", "city": "Avry-sur-Matran", "address2": ""}},
{"name": "Avry-devant-Pont", "type": "shell", "location": {"geo": {"lon": 7.0853634, "lat": 46.681995}, "zip": "1644", "country": "CH", "address": "Restoroute de la Gruy\\u00e8re", "city": "Avry-devant-Pont", "address2": ""}},
{"name": "Bavois-Alpes", "type": "shell", "location": {"geo": {"lon": 6.570611, "lat": 46.6739849}, "zip": "1372", "country": "CH", "address": "Restoroute de Bavois", "city": "Bavois", "address2": ""}},
{"name": "Bavois-Jura", "type": "shell", "location": {"geo": {"lon": 6.5693753, "lat": 46.6736156}, "zip": "1372", "country": "CH", "address": "Restoroute de Bavois", "city": "Bavois", "address2": ""}},
{"name": "Belfaux", "type": "m", "location": {"geo": {"lon": 7.1131443, "lat": 46.8259234}, "zip": "1782", "country": "CH", "address": "route de Lossy 16b", "city": "Belfaux", "address2": ""}},
{"name": "Belp", "type": "mm", "location": {"geo": {"lon": 7.4926529, "lat": 46.8964728}, "zip": "3123", "country": "CH", "address": "Steinbachstrasse 28", "city": "Belp", "address2": ""}},
{"name": "Bern - Bachm\\u00e4tteli", "type": "mm", "location": {"geo": {"lon": 7.3900576, "lat": 46.9392241}, "zip": "3018", "country": "CH", "address": "Bottigenstrasse 7", "city": "Bern", "address2": ""}},
{"name": "Bern - Bahnhof", "type": "mm", "location": {"geo": {"lon": 7.4401642, "lat": 46.949378}, "zip": "3011", "country": "CH", "address": "Bahnhofplatz 10", "city": "Bern", "address2": ""}},
{"name": "Bern - Bahnhof Take Away", "type": "mr", "location": {"geo": {"lon": 7.4395076, "lat": 46.9488819}, "zip": "3011", "country": "CH", "address": "Bahnhofplatz 10", "city": "Bern", "address2": ""}},
{"name": "Bern - Bethlehem", "type": "mm", "location": {"geo": {"lon": 7.3832855, "lat": 46.9475326}, "zip": "3027", "country": "CH", "address": "Riedbachstrasse 10", "city": "Bern", "address2": ""}},
{"name": "Bern - Breitenrain", "type": "m", "location": {"geo": {"lon": 7.4532328, "lat": 46.9580156}, "zip": "3013", "country": "CH", "address": "Breitenrainstrasse 11", "city": "Bern", "address2": ""}},
{"name": "Bern - Bubenberg", "type": "mm", "location": {"geo": {"lon": 7.4379673, "lat": 46.9474381}, "zip": "3011", "country": "CH", "address": "Bubenbergplatz 8", "city": "Bern", "address2": ""}},
{"name": "Bern - B\\u00fcmpliz", "type": "soca", "location": {"geo": {"lon": 7.3965641, "lat": 46.9488786}, "zip": "3027", "country": "CH", "address": "B\\u00fcmplizstrasse 8", "city": "Bern", "address2": ""}},
{"name": "Bern - Christoffel", "type": "m", "location": {"geo": {"lon": 7.4401581, "lat": 46.9475739}, "zip": "3011", "country": "CH", "address": "Christoffelunterf\\u00fchrung", "city": "Bern", "address2": ""}},
{"name": "Bern - Eggh\\u00f6lzli", "type": "m", "location": {"geo": {"lon": 7.475067, "lat": 46.9368899}, "zip": "3006", "country": "CH", "address": "Eggh\\u00f6lzlistrasse 1 / 1a", "city": "Bern", "address2": ""}},
{"name": "Bern - Eggh\\u00f6lzli", "type": "mgls", "location": {"geo": {"lon": 7.4751852, "lat": 46.9368988}, "zip": "3006", "country": "CH", "address": "Eggh\\u00f6lzlistrasse 1", "city": "Bern", "address2": ""}},
{"name": "Bern - Eigerplatz", "type": "m", "location": {"geo": {"lon": 7.4320705, "lat": 46.9399808}, "zip": "3007", "country": "CH", "address": "Seftigenstrasse 1", "city": "Bern", "address2": ""}},
{"name": "Bern - Fellerstrasse", "type": "mgls", "location": {"geo": {"lon": 7.384876, "lat": 46.9464}, "zip": "3027", "country": "CH", "address": "Fellerstrasse 33", "city": "Bern", "address2": ""}},
{"name": "Bern - Freudenberg", "type": "mm", "location": {"geo": {"lon": 7.4727611, "lat": 46.9454091}, "zip": "3006", "country": "CH", "address": "Giacomettistrasse 15", "city": "Bern", "address2": ""}},
{"name": "Bern - Kirchenfeld", "type": "m", "location": {"geo": {"lon": 7.4531633, "lat": 46.9421839}, "zip": "3005", "country": "CH", "address": "Thunstrasse 18", "city": "Bern", "address2": ""}},
{"name": "Bern - Lorraine", "type": "m", "location": {"geo": {"lon": 7.4465984, "lat": 46.9559292}, "zip": "3013", "country": "CH", "address": "Dammweg 9", "city": "Bern", "address2": ""}},
{"name": "Bern - Marktgasse", "type": "mmm", "location": {"geo": {"lon": 7.4448371, "lat": 46.9482654}, "zip": "3011", "country": "CH", "address": "Marktgasse 46", "city": "Bern", "address2": ""}},
{"name": "Bern - Marktgasse Fachmarkt", "type": "fm", "location": {"geo": {"lon": 7.445796, "lat": 46.9481395}, "zip": "3011", "country": "CH", "address": "Marktgasse 28-32", "city": "Bern", "address2": ""}},
{"name": "Bern - Murifeld", "type": "m", "location": {"geo": {"lon": 7.4811263, "lat": 46.9395518}, "zip": "3015", "country": "CH", "address": "Jupiterstrasse 15", "city": "Bern", "address2": ""}},
{"name": "Bern - St\\u00f6ckacker", "type": "m", "location": {"geo": {"lon": 7.3992866, "lat": 46.944202}, "zip": "3018", "country": "CH", "address": "Bethlehemstrasse 110", "city": "Bern", "address2": ""}},
{"name": "Bern - Wankdorf", "type": "mgls", "location": {"geo": {"lon": 7.4659375, "lat": 46.9658677}, "zip": "3014", "country": "CH", "address": "Winkelriedstrasse 10", "city": "Bern", "address2": ""}},
{"name": "Bern - Wankdorf MParc", "type": "fm", "location": {"geo": {"lon": 7.4589773, "lat": 46.9654266}, "zip": "3014", "country": "CH", "address": "Wankdorffeldstrasse 90", "city": "Bern", "address2": ""}},
{"name": "Bern - Welle 7", "type": "m", "location": {"geo": {"lon": 7.4369117, "lat": 46.9480604}, "zip": "3000", "country": "CH", "address": "Schanzenstrasse 5", "city": "Bern", "address2": ""}},
{"name": "Bern - Westside", "type": "mm", "location": {"geo": {"lon": 7.3743954, "lat": 46.9455311}, "zip": "3027", "country": "CH", "address": "Gilberte-de-Courgenay-Platz 4", "city": "Bern", "address2": ""}},
{"name": "Bern - Westside", "type": "mgls", "location": {"geo": {"lon": 7.3706941, "lat": 46.9433611}, "zip": "3027", "country": "CH", "address": "Riedbachstrasse 104", "city": "Bern", "address2": ""}},
{"name": "Bern - Winkelried", "type": "mm", "location": {"geo": {"lon": 7.4639574, "lat": 46.9658664}, "zip": "3014", "country": "CH", "address": "Wankdorffeldstrasse 71", "city": "Bern", "address2": ""}},
{"name": "Bern - Z\\u00e4hringer", "type": "mm", "location": {"geo": {"lon": 7.4336574, "lat": 46.9553183}, "zip": "3012", "country": "CH", "address": "Z\\u00e4hringerstrasse 43", "city": "Bern", "address2": ""}},
{"name": "Bern Westfl\\u00fcgel", "type": "m", "location": {"geo": {"lon": 7.3953525, "lat": 46.9467745}, "zip": "3027", "country": "CH", "address": "Bethlehemstrasse 40", "city": "Bern", "address2": ""}},
{"name": "Bex", "type": "m", "location": {"geo": {"lon": 7.015988, "lat": 46.2504679}, "zip": "1880", "country": "CH", "address": "Rue Centrale 43-45", "city": "Bex", "address2": ""}}
]
